id,lat,lon,type,title,street number,street name,last seen,ratings,2023 approved
1006078189470657992,38.05876662019509,-78.49060191830371,entire_home,"4 Mins to UVA Grounds, Peaceful 3BR House",,,2024-03-02,,false
1006153501856304492,38.06716585135229,-78.50235103608019,entire_home,Guest house close to UVA-Scott stadium-barrack Rd.,93,Biltmore Dr,2024-03-02,7,false
1007942490771431798,38.0232093,-78.4591324,private_room,A Quiet Room of Your Own,1704,E Market St,2024-03-02,10,false
1018757806893288124,38.067589584003926,-78.50293305418897,private_room,Master King bedroom/P-bathroom,99,Biltmore Dr,2024-02-14,,false
1020362793425373820,38.02804107043091,-78.48970291410158,entire_home,The Great Location,405,5th St SW,2024-03-02,4,false
1025402419480231876,38.02423270656678,-78.4774767864233,entire_home,Home in Belmont,,,,,false
1025463147028544520,38.021917220479494,-78.4994997054889,entire_home,Cozy Charlottesville Oasis: Close to Everything!,,,,,false
1028261869280662256,38.03996708122524,-78.500692139258,shared_room,Lovely comfy room near UVA,,,2024-03-02,,false
1028482460271712262,38.01896247022697,-78.47115358593851,entire_home,Townhouse 3 bedroom unit,104,Waterbury Ct,2024-03-02,,false
1037082994400241691,38.02363859347604,-78.5187719533725,private_room,10 Minute Walk to UVA Campus & UVA Hospital Room A,,,,,false
1037501450937026919,38.02169154743187,-78.51889093661474,private_room,10 Minute Walk to UVA Campus & UVA Hospital Room B,,,2024-03-02,6,false
1037609217915441536,38.02687,-78.51849,entire_home,"The Nook at UVa- alumni, parents, game fans!",,,,,false
1038184673167096086,38.02355347270491,-78.5171751303617,private_room,10 Minute Walk to UVA Campus & UVA Hospital Room C,,,2024-03-02,8,false
1038492888505731204,38.02303733344418,-78.51769181973651,private_room,10 Minute Walk to UVA Campus & UVA Hospital Room E,,,2024-03-02,5,false
1038580886894804269,38.02171253910557,-78.51731898137515,private_room,10 Minute Walk to UVA Campus & UVA Hospital Room F,,,2024-03-02,13,false
1039224589904816833,38.02325039054416,-78.49054260068665,entire_home,Apt 3 in Historical Building w/Mountain Views,752,Ridge St,2024-03-02,,false
1055005861744581944,38.0265977655564,-78.48613869830626,entire_home,Historic Home in Downtown Cville,,,,,false
1055392521678470008,38.02313671378294,-78.47828812369153,entire_home,Charming 2BR Apt near Pavilion,717,Bolling Ave,2024-03-02,5,false
1061883191529254227,38.035621729353416,-78.49506035509039,private_room,"Private Bedroom, Easy Walk to UVA",,,,,false
1063743896351178809,38.02140112632629,-78.46779951171935,entire_home,Newly renovated home in Belmont!,501,Rives St,2024-03-02,3,false
1064444753290306928,38.0211054252206,-78.4824960017182,entire_home,The Belmont Butter House,617,Altavista Ave,2024-03-02,,false
1064502034963389776,38.03429755295625,-78.46677928723314,entire_home,Classic Downtown Home,1200,Hazel St,2024-03-02,,false
1064548421494689449,38.026519319418064,-78.47258797042562,entire_home,Belmont Penthouse Apartment (30 Day Min),200,Douglas Ave,,,false
1068103441938282447,38.028445070676455,-78.47197708383813,entire_home,C'ville Downtown Retreat,1101,E Market St,2024-03-02,,false
10710588,38.01837864336701,-78.49515223707957,private_room,Comfortable & Convenient in Cville,1017,Ridge St,2024-03-02,263,false
1081557257714966935,38.0403087491478,-78.51503372695909,entire_home,Luxury home amazing location Charlottesville,2110,Minor Rd,2024-03-02,,false
1086962193136305054,38.03467844791122,-78.48385055519387,entire_home,"Steps from UVA, Downtown Mall, Spacious Apartment",,,2024-03-02,,false
1095965969157765395,38.0183553,-78.47137839814758,private_room,A Townhouse,,,2024-03-02,,false
1097397882660942445,38.02588343477309,-78.46557807747027,entire_home,Wonderful Family House.,1321,E Market St,2024-02-26,,true
10983225,38.021415235027,-78.47629440744862,entire_home,Cozy Cottage minutes from downtown!,907,Blenheim Ave,,,false
11094566,38.03593914305089,-78.49017560551695,entire_home,Downtown Pool House. Walk Downtown and to UVA,420,9th St NW,2024-03-02,86,true
11143292,38.01712904423486,-78.49315566301281,entire_home,"Large, Bright, Open Concept Home for Big Groups",931,Raymond Rd,2024-03-02,139,false
1138005,38.04309,-78.46047,private_room,Woodside Downtown Charlottesville Retreat,,,2024-03-02,37,false
11557016,38.01837864336701,-78.49515223707957,private_room,Cozy and Convenient in Cville,1017,Ridge St,2024-03-02,223,false
1186869,38.03997,-78.49211,entire_home,Do Drop Inn - charming 2BR bungalow,,,2024-03-02,443,false
11926883,38.01832592858433,-78.49304243813778,entire_home,"Bright, Spacious Home Perfect for Groups (5 Beds)",913,Raymond Rd,2024-03-02,142,true
12056699,38.02146697442968,-78.50068198006933,private_room,Large studio/private entrance. Walk to UVA.,110,Elkhorn Rd,2024-03-02,124,false
12125053,38.033430632325725,-78.47960764554094,private_room,Cope Foster - King Room Downtown Cville!,409,2nd St NE,2024-03-02,69,true
12339369,38.0465,-78.5008,entire_home,"Walk to UVA, Athletics, Shopping",,,,,false
13058472,38.03133215349232,-78.48247093904051,hotel_room,Townsman Hotel | Poe Room,211,W Main St,2024-03-02,192,false
13058517,38.03133215349232,-78.48247093904051,hotel_room,Townsman Hotel | Meriwether Room,211,W Main St,2024-03-02,89,false
13058556,38.03133215349232,-78.48247093904051,hotel_room,Townsman Hotel | Secretariat Room,211,W Main St,2024-03-02,107,false
13058593,38.03133215349232,-78.48247093904051,hotel_room,Townsman Hotel | Faulkner Room,211,W Main St,2024-03-02,100,false
1334381,38.04048,-78.46498,entire_home,Bright Private apt (Separate entrance) near DT,,,2024-03-02,167,false
13544918,38.0310894145896,-78.46412329841641,entire_home,2br/2ba Sunny Contemporary Cottage. Walkable!,518,Meade Ave,,,false
13680171,38.02414,-78.47544,entire_home,"Beautiful Belmont Apartment, 
Walk Everywhere!!",700,Graves St,,,true
13715759,38.062867208795275,-78.50373280484423,entire_home,Terrace apartment with separate entrance.,136,N Bennington Rd,2024-03-02,205,false
13743664,38.01965211311583,-78.4840846375656,entire_home,"Cozy Stonehenge Cottage:Work,Family&Dog Friendly",632,Stonehenge Ave,2024-03-02,305,false
13890978,38.02526156976197,-78.47827789770787,entire_home,"HISTORIC ""BELMONT HOUSE""  near the  Downtown Mall",520,Avon St,2024-03-02,12,false
13951613,38.03473541774199,-78.48211233475222,entire_home,Downtown Cottage Walk to the Mall!,415,McIntire Rd,2024-03-02,240,false
14074923,38.07076,-78.49411,private_room,Sylvicka's Place-owner Sylvia Cechova,,,2024-03-02,64,false
14216931,38.02593,-78.47788,private_room,Belmont House  Double Bedroom - Downtown Mall,,,2024-03-02,60,false
14393956,38.02524919022379,-78.47828185340543,private_room,"Historic Belmont House - downtown mall ""Kingsize""",520,Avon St,2024-03-02,68,false
14394002,38.02531751585741,-78.47825417352477,private_room,Historic Belmont House downtown - Queen bedroom,520,Avon St,2024-03-02,46,false
14397945,38.025186320166256,-78.47827999169338,private_room,Historic Downtown Belmont Special  two room offer!,520,Avon St,2024-03-02,33,false
14932235,38.028908861968425,-78.49625590949815,entire_home,Blue Bungalow | Renovated 1890`s Farmhouse,917,Cherry Ave,2024-03-02,106,false
14982635,38.03311952985463,-78.47250661259996,entire_home,Charming bungalow 3 blocks from the Downtown Mall,500,Lexington Ave,2024-03-02,64,true
15038321,38.04769,-78.48765,entire_home,Apartment on Oxford Road - UVA walkable & Quiet!,,,2024-03-02,65,false
15039876,38.04569662206521,-78.46190800599491,entire_home,Mosaic Villa For 6 With A View,1111,Holmes Ave,2024-03-02,77,false
15278354,38.022169706104414,-78.47217714216613,entire_home,Beautiful Sunny 1 bedroom Home In Charlottesville,1111,Leonard St,2024-03-02,329,false
15309817,38.01568,-78.50015,private_room,Master Bed Room with King Bed(Near UVA & Downtown),,,2024-03-02,14,false
15310376,38.01568,-78.50015,private_room,Cozy Room- (Near UVA & Downtown),,,2024-03-02,6,false
156430,38.03876,-78.47933,entire_home,★1 BR Private Apartment in Downtown Cville★,,,2024-03-02,504,false
15857729,38.02751,-78.46383,private_room,Bright Cheerful Suite On Second Floor,,,2024-03-02,53,false
15911472,38.0313182353314,-78.47872955427943,entire_home,Historic Cville Row House 1 Block to Downtown Mall,215,4th St NE,2024-03-02,130,false
16228345,38.01630445563019,-78.48411048110296,entire_home,Lovely apartment in Belmont Cville neighborhood,108,Blincoe Ln,2024-03-02,110,false
164672,38.0601433814732,-78.47452874780181,entire_home,Sunny Garden Apartment,1504,Bunker Hill Dr,2024-03-02,26,false
16585621,38.01846092727348,-78.4929918017751,entire_home,"Clean, central, spacious, private - UVA/Downtown",909,Raymond Rd,2024-03-02,204,true
17041059,38.07387651272423,-78.45448099770101,entire_home,Chateau Chamberlain in Charlottesville VA,1158,Farrow Dr,2024-03-02,69,false
17337587,38.027200376260986,-78.4736122133679,entire_home,Modern Belmont home - steps from Downtown Mall!,203,Douglas Ave,2024-03-02,670,true
17385872,38.05183222346127,-78.46482501169213,entire_home,Rockbrook Manor,7,Rockbrook Dr,2024-02-26,117,false
17546107,38.02664341974816,-78.47414980985889,entire_home,Two Bedrooms- Big Covered Porch-NO CLEANING FEE,209,Douglas Ave,2024-03-02,72,true
17692064,38.038550695103304,-78.4738864591399,entire_home,Park Street Retreat - #B,722,Park St,2024-03-02,22,false
1792587,38.04381,-78.45725,private_room,"Cape Cod in Locust Grove, C'ville",,,2024-03-02,374,false
18021210,38.01586385381718,-78.50011640684396,entire_home,"Large 4 Bedroom Home near UVA,Downtown & Wineries",131,Old Fifth Cir,2024-03-02,103,false
18041128,38.02439480836816,-78.4617286688121,entire_home,Architecturally-renovated Downtown 4BR farmhouse,1601,E Market St,2024-03-02,51,true
18055716,38.02547127673013,-78.52213198451842,entire_home,Doggone Fun 3bdr UVA Home with free breakfast,2517,Plateau Rd,2024-03-02,182,false
18136875,38.026771661648326,-78.4765694436748,entire_home,Lovely Downtown 5 Bedroom Renovated Home,309,Monticello Rd,2024-03-02,4,false
18254761,38.04573282110229,-78.48488681625324,entire_home,Beautiful renovated home - walk to UVA & downtown,1515,Rugby Ave,2024-03-02,27,true
18563785,38.03793,-78.46359,entire_home,Chville home away from home.,,,2024-03-02,51,false
18566944,38.05844,-78.45195,private_room,Woodlands Retreat,,,2024-02-23,,false
18601797,38.01752514279524,-78.50202807410773,entire_home,Spacious suite in the heart of Charlottesville,834,Village Rd,2024-03-02,517,false
18631989,38.02979,-78.47031,entire_home,Kid and Family Friendly Downtown,,,2024-03-02,105,false
18665941,38.020014392470536,-78.47327223823633,entire_home,Downtown living,1115,Blenheim Ave,2024-03-02,87,true
18689465,38.02448,-78.47708,entire_home,"Luxury, open space, in the HEART of Belmont!",,,2024-03-02,514,false
18689593,38.03544,-78.48966,entire_home,"Downtown studio, walk to corner/downtown mall/UVA",,,2024-03-02,512,false
18717752,38.03132,-78.4935,entire_home,Modern Treehouse Retreat *Sanitized*,,,2024-03-02,181,false
19068442,38.02283791146412,-78.49995015851228,entire_home,UVA Hospital Area Private Guest Entry and Parking,709,Rockcreek Rd,2024-02-14,,true
19431411,38.0315,-78.46784,private_room,"3 room private suite, walk to downtown mall,",,,2024-03-02,120,false
19459526,38.05047,-78.49934,entire_home,UVA Area Tree Top Apt,,,2024-03-02,81,false
1948995,38.02799325971545,-78.4634205807512,private_room,Three rooms-walk to downtown,413,Fairway Ave,2024-03-02,95,true
19659797,38.02166,-78.45883,entire_home,Charlottesville Woolen Mills Vacation Like a Local,,,2024-03-02,279,false
19700853,38.02269,-78.50007,private_room,"1 Bedroom in Downtown C-ville, Kid-Friendly!",,,2024-03-02,129,false
19796446,38.03245556050893,-78.48900949849912,entire_home,"Walk Downtown, Corner, and UVA Grounds/Hospital!",612,Brown St,2024-03-02,175,true
19840754,38.06042,-78.48466,private_room,"City convenience, cozy privacy",,,2024-03-02,180,false
20193549,38.023730409504985,-78.48818276323506,entire_home,Blue Heron: Beautiful new downtown apartment,106,Burnet Way,2024-03-02,209,true
20430324,38.01925017850327,-78.51014425120101,entire_home,Cozy 3 bedroom home near UVa and Downtown Mall.,2508,Willard Dr,2024-03-02,176,false
20686304,38.07175,-78.46842,private_room,"Entire walk-in basement, 3.5 mi Downtown, 6 mi UVA",,,2024-02-14,,false
21150886,38.01432620840676,-78.47896510046917,entire_home,Spacious and Private City home!,1011,Rougemont Ave,2024-02-23,,true
21241880,38.049573095607116,-78.48351336772949,entire_home,Greenleaf Grove,1502,Greenleaf Ln,2024-03-02,96,true
21413176,38.02199974843167,-78.4824502496175,entire_home,Belmont Base for Charlottesville Adventures!,613,Elliott Ave,2024-03-02,197,true
21658945,38.02971,-78.48256,entire_home,Luxurious Posh Downtown Condo,,,2024-03-02,147,false
22433028,38.02922041662217,-78.4855061652135,entire_home,The Cottage on Ridge-Downtown Mall Charlottesville,214,Ridge St,2024-03-02,126,false
22494093,38.0242910776206,-78.50546474204086,entire_home,"3 bdrm home 1 mile from UVA, No extra fees!",1511,Cherry Ave,2024-03-02,127,false
22626013,38.02499713713537,-78.47513405654533,entire_home,Blue Bell | Private Parking Space | Fast WiFi,227,Douglas Ave,,,false
22881264,38.022875414178046,-78.49993315567767,entire_home,2 BDRM Spacious & Private Apt Close to Downtown,709,Rockcreek Rd,2024-03-02,327,true
23004014,38.02298,-78.47411,entire_home,BELMONT DESIGNER APARTMENT- CVILLE CHARM,,,2024-03-02,547,false
23163410,38.02564,-78.48654,entire_home,Downtown Retro Retreat,,,2024-03-02,139,false
23257938,38.05441,-78.45634,entire_home,Great 3 BR home near UVA and Downtown!,,,2024-03-02,9,false
23271179,38.02499713713537,-78.47513405654533,entire_home,Green Ivy | Private Parking Space | Fast WiFi,227,Douglas Ave,2024-02-14,,false
23336579,38.02941422977219,-78.50596145750367,entire_home,“Yellow Cottage”  10 min walk to UVA graduation!,523,Valley Rd,2024-02-26,34,false
2350534,38.07696,-78.45947,entire_home,Spacious private suite in quiet neighborhood,,,2024-03-02,169,false
23542836,38.05524,-78.46294,entire_home,Spacious Victorian Suite on the Rivanna Trail,,,2024-03-02,166,false
23693768,38.01455699904383,-78.48068796720918,entire_home,Family-friendly 3BR on quiet street in Belmont,912,Rougemont Ave,2024-03-02,18,false
23918430,38.02766,-78.45383,private_room,Riverside Hideaway: spacious garden level studio,,,2024-03-02,367,false
2399994,38.0479,-78.48517,entire_home,Oxford Cottage: Cville’s favorite tiny home!,,,2024-03-02,659,false
24076293,38.04782718687262,-78.50204254840544,entire_home,"Serene and spacious home, <1 mile walk to UVA lawn",901,Fendall Ter,2024-03-02,13,false
24371386,38.02620445266543,-78.5180417326537,entire_home,"Close to UVA, walk to restaurants, free trolley",2317,Fontaine Ave Extended,2024-03-02,119,false
24451050,38.026748693549806,-78.47345034950156,entire_home,West Wing,204,Douglas Ave,2024-03-02,243,true
24532721,38.02526156976197,-78.47827789770787,private_room,Historic Belmont House downtown - Queen Bedroom 2,520,Avon St,2024-03-02,37,false
24736213,38.06116857942634,-78.46731330725702,entire_home,Renovated Basement unit with private entrance,2216,Banbury St,2024-03-02,25,false
24748029,38.03893,-78.51388,entire_home,Steps to UVa- New & Clean,,,2024-03-02,69,false
24920102,38.02548343217112,-78.47474401698547,entire_home,Downtown Belmont City Retreat,221,Douglas Ave,2024-03-02,3,false
24963206,-78.49398238033666,-78.49314,private_room,"Great house, great location! Dogs welcome :)",199,Brookwood Dr,2024-02-13,,false
25031828,38.026034011657245,-78.46580042806079,entire_home,"Woolen Mills Cottage- 2 Beds, 1 Bath, Full Kitchen",1319,E Market St,2024-03-02,212,false
25204022,38.04554,-78.48667,entire_home,Central Charlottesville Living in a Well-Appointed Home,,,2024-03-02,48,false
25628663,38.02043262936615,-78.48568769850593,entire_home,City Home in Belmont with Nature All Around,501,Stonehenge Ave,2024-02-25,130,true
25717437,38.02570654845529,-78.47941313396909,entire_home,"Belmont Classic/Modern Reno, Walkable",613,Belont Ave,2024-03-02,125,false
25802228,38.02556166907554,-78.47671825656215,entire_home,HighGround on Hinton,727,Hinton Ave,,,false
2591146,38.04599,-78.50007,private_room,"Comfort, Convenience, & Charm - The Charles Suite",,,,,false
26560609,38.0271270455959,-78.47497660737406,entire_home,"Corner House | Stylish Belmont Home, near Downtown",742,Graves St,2024-03-02,99,false
26714842,38.03455187985652,-78.47956481409543,entire_home,Spacious Sunny 1 Bedroom + Study +Double Bathroom,501,1st St N,2024-03-02,65,false
27110175,38.0449,-78.45663,entire_home,The Burrow (Bring Own Wands),,,,,false
27576154,38.01997052103973,-78.4703776307907,entire_home,"Net Zero, Guilt Free Living! 1 mile from DT",1308,Hampton St,2024-03-02,273,false
27666996,38.027200376260986,-78.4736122133679,entire_home,Belmont Home with Hot Tub - steps from Downtown,203,Douglas Ave,2024-03-02,129,true
27719797,38.01997052103973,-78.4703776307907,entire_home,100% Solar Home! Guilt Free Living 1 mile from DT,1308,Hampton St,2024-03-02,306,false
27820944,38.01033963317488,-78.49497101323998,entire_home,The Empty Nest,923,Royer Dr,2024-02-13,,false
28340277,38.01616125967863,-78.51031228857369,entire_home,Cavalier Carriage House Suite | Near UVA,106,Oak Lawn Dr,2024-03-02,95,false
28856729,38.04627,-78.49883,entire_home,Peaceful and Spacious Woodland Haven Near UVA,,,2024-02-14,,false
29263972,38.04198,-78.46509,entire_home,Giallo House | Self Check-in,,,2024-03-02,545,false
29334145,38.044021071590144,-78.4984430468296,entire_home,Fabulous Rugby Rd Luxury Home-Walk to UVA & MainSt,803,Rugby Rd,2024-03-02,21,true
29452766,38.023269534665744,-78.47491328276783,entire_home,Designer Belmont Apartment! Close to everything!,910,Belmont Ave,2024-03-02,468,false
30444903,38.03981,-78.46039,private_room,Room no.2 - Guesthouse,,,2024-03-02,288,false
30445193,38.04184,-78.46058,private_room,Room no. 3 - Guesthouse,,,2024-03-02,274,false
30448133,38.04134,-78.45997,private_room,Room no.1 - Guesthouse,,,2024-03-02,267,false
30568760,38.02241996104544,-78.5088434273862,entire_home,Charming Cherry Cottage - UVA & Downtown Area,1631,Cherry Ave,2024-03-02,219,false
3061401,38.02903,-78.4641,private_room,Two Queen Rooms - Near Downtown,,,2024-03-02,93,false
3061458,38.02925,-78.46383,private_room,Queen Room - Walk to downtown,,,2024-03-02,102,false
31017496,38.03493,-78.48928,entire_home,The Urban Cottage in the center of C-Ville!,,,2024-03-02,422,false
31189272,38.04134423354032,-78.4610998754353,entire_home,"Locust Grove Retreat- 3 Bed, 1 Bath, Full Kitchen",1027,Martin St,2024-03-02,226,false
31190062,38.0223,-78.51458,private_room,Fry's Spring Bliss,,,2024-03-02,41,false
31255844,38.01648575645163,-78.51001373626862,entire_home,NEW Cville HOME 4 bdrm (no cleaning fee).,109,Oak Lawn Dr,2024-03-02,48,false
31568345,38.03017,-78.46604,entire_home,"Cozy basement guest suite, 15 min walk to downtown",,,2024-03-02,137,false
31888613,38.03742,-78.49267,entire_home,Your C-Ville Home Away From Home -Vacation Rental,,,2024-03-02,78,false
31961919,38.01575983871654,-78.51045490786238,entire_home,Modern Carriage House Near UVA,104,Oak Lawn Ct,2024-03-02,149,true
31961919,38.01575983871654,-78.51045490786238,entire_home,Modern Carriage House Near UVA,104,Oak Lawn Ct,2024-03-02,149,true
32156338,38.01580386748928,-78.5104655447444,entire_home,Gorgeously Updated Home-Minutes to UVA,104,Oak Lawn Ct,2024-03-02,,true
32156338,38.01580386748928,-78.5104655447444,entire_home,Gorgeously Updated Home-Minutes to UVA,104,Oak Lawn Ct,2024-03-02,,true
32158190,38.03604,-78.49207,private_room,Dowell Master Suite,,,2024-03-02,9,false
3218982,38.04073042042281,-78.46568213767998,entire_home,Fabulous Terrace Level Apartment In City,921,St Charles Ave,2024-03-02,252,false
32683856,38.02359697846611,-78.47931051439804,private_room,Guest suite w/own entrance in updated cottage,703,Bolling Ave,2024-03-02,494,false
32886731,38.02393,-78.472824,entire_home,Base Camp Belmont - 1BR w/laundry & private patio,,,,,false
33431471,38.04924022283414,-78.49213384938639,entire_home,Rugby Road Residential (RRR) near UVa and downtown,1219,Rugby Rd,2024-03-02,130,false
33481893,38.0373,-78.49364,private_room,The Thomas Suite,,,2024-03-02,14,false
33658833,38.041799212287344,-78.46354259277385,entire_home,Charming St. Charles,1012,St Charles Ave,2024-03-02,171,false
34256214,38.05662,-78.50046,entire_home,"Barracks Rd Condo, Great spot for all JPJ events",,,2024-03-02,294,false
34466238,38.01904,-78.4955,entire_home,Sunsets Overlooking C'ville,,,2024-03-02,58,false
35287055,38.0315504383731,-78.48964159497288,entire_home,Main Street Downtown Balcony Apartment,635,W Main St,2024-03-02,282,false
35822286,38.04844448159471,-78.49471712595916,entire_home,"Luxury Furnished Home Near UVA, Darden, Downtown",104,Buckingham Rd,2024-03-02,33,true
36311511,38.063567862699394,-78.49867419942127,entire_home,The Comfy Ranch,102,Inglewood Ct,,,false
36521202,38.06114324276954,-78.46727475372475,entire_home,22Newly furnished just completed home in the city.,2216,Banbury St,2024-03-02,5,false
36834796,38.06110646989452,-78.46732314743275,private_room,22Newly updated Ensuite Master Bedrm in the city.,2216,Banbury St,2024-03-02,6,false
36857908,38.061167466824344,-78.46734348340512,private_room,22Private and cozy Bedroom in the city.,2216,Banbury St,2024-03-02,5,false
36960823,38.01936510858554,-78.48433051347021,entire_home,"Chic & dog-friendly,big fenced yard, walk downtown",602,Stonehenge Ave,2024-03-02,53,false
37169812,38.06121245201629,-78.46732314721457,private_room,"22Private, cozy bedroom in the city.",2216,Banbury St,2024-03-02,5,false
3730726,38.01824,-78.51785,entire_home,Close to UVA/Private Outdoor Entry,,,2024-03-02,218,false
37805618,38.03784,-78.47394,entire_home,North Downtown Walk-out Apartment,,,2024-02-13,,false
37861155,38.02650643357583,-78.50466545035763,entire_home,A Family & Dog Friendly Row Home,401,Valley Rd Ext,2024-02-26,24,false
38308971,38.016124162723635,-78.50973530838644,entire_home,Contemporary Light Filled Carriage House,120,Oak Lawn Ct,2024-02-26,63,false
38344624,38.04396,-78.4694,private_room,"Spacious, private terrace level unit.",,,2024-03-02,88,false
38573765,38.023756741371095,-78.50030499990237,entire_home,Private Studio Basement Apt close to UVA,1428,Briarcliff Ave,2024-03-02,206,false
39132420,38.03294,-78.47184,entire_home,Vintage Attic Apartment walk to Downtown Mall.,,,2024-03-02,132,false
39153205,38.02287,-78.5144,entire_home,New luxury tiny house in central Charlottesville,,,2024-03-02,125,false
39387594,38.01877376123676,-78.49152500641215,entire_home,Great Location - Gorgeous View (Close to UVA),138,Baylor Ln,2024-03-02,93,false
39895030,38.03147,-78.50689,private_room,Oakhurst Inn: a boutique hotel at the University,,,2024-03-02,33,false
3997007,38.023277668458064,-78.47219473252738,entire_home,Private appartment in Charlottesville / Belmont,1100,Leonard St,2024-03-02,393,false
40121564,38.02911,-78.46571,entire_home,Meade Cottage,,,2024-03-02,219,false
40125467,38.01619,-78.47526,entire_home,"Greensview Apartment | Belmont, close to Downtown!",,,2024-03-02,67,false
40133437,38.027610241053786,-78.51715264956599,entire_home,Stadium House|Perfect House close to UVA!,2307,Price Ave,2024-03-02,28,false
40147377,38.03628434190322,-78.47871289789344,entire_home,Zen Upscale Luxury in Downtown Charlottesville,107,Perry Dr,2024-02-23,,false
4024562,38.04937,-78.49559,entire_home,"Luxury 2BR Suite One Mile From UVa, Near Downtown",,,2024-03-02,35,false
40250625,38.04919,-78.49328,entire_home,Redbud Garden Suite,,,2024-03-02,200,false
40432357,38.05131,-78.50211,entire_home,Upscale Carriage House -  near UVA & Shopping,,,2024-03-02,122,false
40533478,38.02975,-78.4817,entire_home,The Wood Company Loft | Fully renovated modern apa,,,2024-03-02,59,false
40759154,38.03782736024619,-78.47826366473427,entire_home,★Large 2 Bedroom Private Apartment-Downtown★,622,McIntire Rd,2024-03-02,314,true
40795124,38.01934125435847,-78.48433356092127,entire_home,Spacious city home near everything with large yard,602,Stonehenge Ave,2024-03-02,31,false
4085607,38.04298186580923,-78.45994329302317,entire_home,Cozy Cape Cod in Heart of Downtown,1104,Locust Ave,,,false
41146727,38.06322210379898,-78.48106120730567,entire_home,The Dragonfly-a quiet & charming apartment,1647,Brandywine Dr,2024-03-02,211,true
41192292,38.06326968097251,-78.48104106439175,entire_home,"The Hummingbird, a cozy quiet, 2 room apartment",1647,Brandywine Dr,2024-03-02,178,true
41614683,38.02096,-78.50563,entire_home,Wahoowa!  Close to UVA!,,,2024-03-02,105,false
42021058,38.02899106327884,-78.47847000835301,entire_home,Water Street Condo | Modern Downtown Retreat,550,E Water St,2024-03-02,46,false
42065169,38.01895,-78.4728,entire_home,Unique space in downtown Belmont,,,2024-03-02,154,false
42131616,38.0304737638344,-78.48131487825273,private_room,The Jeff Hotel | Suite 204,110-112,E Main St,2024-03-02,87,false
42243387,38.0437,-78.49797,private_room,Private Queen Room in Historic Home on edge of UVA,,,2024-03-02,128,false
42245308,38.0304737638344,-78.48131487825273,private_room,The Jeff Hotel | Suite 201,110-112,E Main St,2024-03-02,112,false
42246378,38.0304737638344,-78.48131487825273,private_room,The Jeff Hotel | Suite 202,110-112,E Main St,2024-03-02,84,false
42250924,38.0304737638344,-78.48131487825273,private_room,The Jeff Hotel | Suite 203,110-112,E Main St,2024-03-02,100,false
42251052,38.0304737638344,-78.48131487825273,private_room,The Jeff Hotel | Studio 304,110-112,E Main St,2024-03-02,88,false
42251827,38.0304737638344,-78.48131487825273,private_room,The Jeff Hotel | Studio 303,110-112,E Main St,2024-03-02,110,false
42252428,38.0304737638344,-78.48131487825273,private_room,The Jeff Hotel | Studio 302,110-112,E Main St,2024-03-02,130,false
42252665,38.0304737638344,-78.48131487825273,private_room,The Jeff Hotel | Studio 301,110-112,E Main St,2024-03-02,131,false
42758973,38.03324890136719,-78.4622802734375,entire_home,Dog Friendly/Gated Yard Close to Downtown Mall,1509,E High St,2024-03-02,8,false
42950362,38.03324890136719,-78.4622802734375,entire_home,Spacious Dog Friendly Close to Downtown and UVA,1509,E High St,2024-03-02,21,false
42951354,38.03324890136719,-78.4622802734375,entire_home,Bicycle Haven Close to Downtown & UVA,1509,E High St,2024-03-02,11,false
42951709,38.03324890136719,-78.4622802734375,entire_home,Garden Retreat Close to Downtown & UVA,1509,E High St,2024-03-02,9,false
43002555,38.03104,-78.46959,entire_home,"Bright, cheerful & comfortable home!",,,2024-02-26,31,false
4342251,38.03219,-78.47137,entire_home,Patio Downtown Retreat,,,2024-02-26,143,false
43422636,38.04111423851004,-78.47056522328354,entire_home,Enderly - c1859 - English Basement Apartment,603,Watson Ave,2024-03-02,26,true
43756760,38.06870562825428,-78.49608273305415,entire_home,Enjoy the Cavalier Life-Uber to events & wineries!,134,Turtle Creek Rd,2024-03-02,20,false
43849674,38.018290700346775,-78.47876282971868,entire_home,Best of Belmont-Modern and Cozy,905,Druid Ave,2024-03-02,71,true
4391817,38.023677460820466,-78.48029332514389,entire_home,Downtown Top Floor Apartment (Reduced Weekdays),622,Bolling Ave,2024-03-02,697,false
44012710,38.02312449626261,-78.46171296163023,entire_home,Private Suite in a Modern Downtown Farmhouse,124,Franklin St,2024-03-02,89,true
4438519,38.02631374944487,-78.4770691751105,entire_home,City seclusion 10 Mins From UVa!,716,Levy Ave,2024-03-02,11,false
44517152,38.06644,-78.49638,private_room,Heart of the Stone-field/UVA. FullSize Bedroom #1.,,,2024-03-02,138,false
44518324,38.06803,-78.49774,private_room,King bed room #2. Guest house,,,2024-03-02,148,false
44518867,38.06836,-78.49682,private_room,"Heart of stonefield,UVA & Downtown Queen Bedroom#3",,,2024-03-02,143,false
44540947,38.05072,-78.49971,entire_home,UVA Neighborhood Spacious Upper Floor,,,2024-03-02,14,false
44589010,38.04356,-78.49887,private_room,2 Private Rooms in Historic Home on edge of UVA,,,2024-03-02,6,false
44644190,38.03648353614938,-78.4929752940603,entire_home,Otter Suite - Great place to stay & play!,339,10th St NW,2024-03-02,45,false
44800051,38.02071643649656,-78.47575657856994,entire_home,Belleza Cottage |  Fast Wifi | Quiet Neighborhood Near Downtown,920,Blenheim Ave,2024-03-02,199,false
45002559,38.0671,-78.49674,entire_home,Guest house Close to UVA/Downtown/Scott-Stadium.,,,2024-03-02,32,false
45073863,38.02811,-78.51718,entire_home,"UVa, Stadium, Downtown , Wineries & The Corner",2305,Price Ave,2024-03-02,107,true
45178693,38.027601689508685,-78.51687895274367,entire_home,Historic Beauty and Walkable to Everywhere,,,2024-03-02,172,false
45366758,38.01521,-78.49932,private_room,Cozy Room with Balcony near Downtown & UVA.,,,2024-03-02,,false
45409003,38.02325964689455,-78.49054112336275,entire_home,Apartment In Historical Building Close To Downtown,752,Ridge St,2024-03-02,11,false
45409075,38.0209033668466,-78.48449113650487,entire_home,"Sunny 3 bedroom Belmont home, pet friendly!",508,Druid Ave,2024-02-14,,false
45517841,38.02347503477381,-78.47971045128857,entire_home,Avon House | Bright Large Family Home,804,Avon St,2024-03-02,96,true
45557208,38.02365,-78.48828,entire_home,"Warner House | Charming Home, walk Downtown",,,2024-03-02,12,false
45652261,38.0361072353865,-78.47706978194148,entire_home,The Carriage House at Wine Cellar Circle,1614,Wine Cellar Cir,2024-03-02,97,false
45736633,38.01863522039483,-78.51785838669184,entire_home,Terrace Level Apartment Walking Distance to UVA,2617,Jefferson Park Cir,2024-03-02,139,false
45786351,38.04088000837864,-78.45963188714026,entire_home,This is a entire upstairs for up to 6 guests.,1028,St Claire Ave,,,false
45829101,38.022581243059086,-78.52173088097169,entire_home,"Bluebird Bungalow in Frye Spring- 2 bed, 1 bath",233,Stribling Ave,2024-03-02,245,false
45864810,38.02078985934193,-78.47309248250005,entire_home,Open Heart - Walk to Downtown-pets are welcomed!,1215,Monticello Rd,2024-03-02,135,false
45951228,38.01504,-78.48273,entire_home,Belmont Carriage House,,,2024-03-02,140,false
46090884,38.02621380327592,-78.45415106925667,entire_home,3Bed/2.5Baths Townhome minutes to Downtown and UVA,350,Riverside Ave,2024-03-02,68,false
46466293,38.04719,-78.48847,entire_home,"New, sunny, studio apartment near UVA/Downtown",,,2024-03-02,27,false
46522622,38.037937011799634,-78.49287676678621,entire_home,The Metta Gem- A Stay w/ Compassion and Charm,406,10 1/2 St NW,2024-03-02,97,true
46578029,38.04281,-78.4975,entire_home,Private Cozy Twin in Historic Home on edge of UVA,,,2024-03-02,144,false
46748654,38.02049899031673,-78.50147071429315,entire_home,Renovated 5BR Home Close to UVA/Downtown,715,Shamrock Rd,2024-03-02,14,true
46767969,38.03818,-78.49172,private_room,The Metta Grotto- An All Embracing Warmth,,,2024-03-02,67,false
46768941,38.02921505246559,-78.46642081411284,entire_home,"Clean, cozy guesthouse near historic downtown mall",400,13th St NE,2024-03-02,71,true
46770910,38.037937011799634,-78.49287676678621,entire_home,The Metta Gem - An Entire Home w/ Loving Kindness,406,10 1/2 St NW,2024-03-02,51,true
46966786,38.036135898718506,-78.47739130992633,entire_home,Wine Cellar Cottage | Walk to Downtown | Parking,611,Wine Cellar Cir,2024-03-02,75,true
47114417,38.03555622454269,-78.4749536246446,entire_home,Private Apt in Historic C'ville Home (Garden Side),620,Park St,2024-03-02,79,true
47123684,38.0416529014947,-78.47119173955572,entire_home,Park Street Cottage | 5 bdrm/4 bath | Sleeps 14,1007,Park St,2024-03-02,66,true
47372839,38.03752788829667,-78.46123093727559,entire_home,River Vista Cottage | 1 Floor | King+Queen Beds,1220,River Vista Ave,2024-02-14,,true
47385957,38.02786390688428,-78.47158904009626,entire_home,Cville City Loft - 2 blocks from downtown,1116,E Market St,2024-03-02,44,false
47520874,38.028200458278654,-78.50026078011979,entire_home,King Cottage | Near DT/UVA/Hospital | No Stairs,1200,King St,2024-03-02,191,false
47785963,38.04314946865083,-78.48682370472255,entire_home,Beautiful Ranch Style Home - Close to Dtwn CVille!,1203,Greenway Rd,2024-03-02,18,true
48088408,38.04837426125174,-78.49470016777926,entire_home,Stylish Luxe Smart Home Near UVA and Downtown Mall,104,Buckingham Rd,2024-03-02,,true
48096352,38.03304787338851,-78.47076760283534,entire_home,The Pop Inn | Perfect for your group getaway,515,Locust Ave,2024-03-02,102,false
48165048,38.0277779183471,-78.48949108344088,entire_home,Delightful loft cottage in the heart of CVille,420,Oak St,2024-03-02,113,true
48681240,38.04320961661774,-78.46464551133053,entire_home,Holmes House,1004,Holmes Ave,2024-03-02,73,false
48742258,38.06717,-78.49921,private_room,"Steps from Stonefield, gorgeous, luxurious condo",,,2024-03-02,,false
48995354,38.02821000134546,-78.48680730502656,entire_home,"The Cherry Tree, downtown estate, 8 parking spaces",401,Ridge St,2024-03-02,105,false
49052307,38.06741190291017,-78.49721369194147,entire_home,Newly Renovated Woodland Retreat,2519,Hydraulic Road,2024-03-02,,false
49062881,38.02384,-78.45835,entire_home,"The Metal House, 3 miles from UVA Grounds",,,2024-03-02,,false
49062964,38.02459412410818,-78.4799566289616,entire_home,Renovated Bright and Modern Downtown Farmhouse,618,Monticello Ave,,,false
49122601,38.01379,-78.46969,private_room,"C’ville “Suite Spot”- Private, Comfy, Min. from DT",,,2024-03-02,67,false
49151790,38.04668,-78.49982,entire_home,Beautiful home on tree-lined street steps from UVA,,,2024-03-02,7,false
49178848,38.02424,-78.50983,entire_home,0.5 mile to Scott Stadium! | Comfy Upper-Level Apt,,,2024-03-02,44,false
49179366,38.06882,-78.46622,private_room,115 Updated City home. 2.9 miles from UVA hospital,,,2024-03-02,8,false
49232223,38.06875,-78.4686,private_room,115Renovated city home. 2.9 miles to UVA hospital.,,,2024-03-02,7,false
49386430,38.05675,-78.49038,entire_home,Close to UVA/Downtown - for Large Groups,,,2024-03-02,111,false
49400258,38.03019675756487,-78.48042346456354,entire_home,Charlottesville Dreamin' | Downtown | Parking,213,E Water St,2024-03-02,220,false
49403790,38.02157,-78.47134,entire_home,"Belmont Private Suite, 1/2 mile to Downtown Mall",,,,,false
4950655,38.02366382957551,-78.46122481038692,entire_home,Woolen Mills garden apartment /private,1610,E Market St,2024-03-02,250,false
49562253,38.03104,-78.48394,entire_home,NEW Modern Condo on the Downtown Mall,,,2024-03-02,62,false
49604375,38.02113168644316,-78.48147585435056,entire_home,Belmont Bungalow 1/2 Mile to Downtown!,1104,Avon St,2024-03-02,59,true
4961336,38.02696407791368,-78.51825003639158,entire_home,Azalea Cottage near UVa,2318,Price Ave,2024-03-02,52,false
49732283,38.02638416364941,-78.47810959619372,entire_home,⋆Best of Downtown & Belmont in Historic Home/ 2bd⋆,415,Avon St,2024-03-02,308,false
49747869,38.0364776281266,-78.47745740557367,entire_home,DOWNTOWN MALL MODERN HOUSE,700,Northwood Ave,2024-03-02,73,false
49774522,38.04363057141766,-78.51912163522202,entire_home,pink cottage @ locust grange,365,Twin Sycamores Ln,2024-03-02,104,false
49905821,38.02860141542229,-78.48898006430335,entire_home,Guest Suite in heart of downtown Charlottesville,308,5th St SW,2024-03-02,4,true
49921758,38.02409451886398,-78.47557672211481,entire_home,Southern Lux Apartment - 30+ night in Dtwn Belmont,829,Belmont Ave,2024-03-02,8,false
49922001,38.02397834295466,-78.47571439160347,entire_home,Fairytale Loft | 1 bed/1 bath in Downtown Belmont,829,Belmont Ave,2024-03-02,31,false
49982659,38.06889,-78.49239,entire_home,"Vaulted Ceilings, Private Balcony, Near Everything",,,2024-03-02,15,false
50006134,38.02397830907434,-78.47568669382483,entire_home,Pharmacy Apartment | 30 + Rental in Dtwn Belmont,829,Belmont Ave,,,false
50178595,38.03478376169526,-78.48219648952677,entire_home,Killer Downtown Efficiency,415,McIntire Rd,2024-03-02,125,false
50291776,38.02400155150974,-78.47575643105569,entire_home,Retro Apartment | Lux Extended Stay in Belmont,829,Belmont Ave,,,false
50501829,38.02447,-78.46083,entire_home,Sun Cottage in Downtown Charlottesville,,,2024-03-02,87,false
50674332,38.04987,-78.50016,entire_home,Heart of Cville: Woodview near UVA,,,2024-03-02,30,false
50813882,38.04554,-78.4926,private_room,Close to UVA | Private Bath | Self-Check In,,,2024-03-02,70,false
50931114,38.01474,-78.46939,entire_home,Lovely small studio with free parking space.,,,2024-03-02,14,false
50973473,38.07441542191085,-78.46741316968718,entire_home,Mai-An's Garden Refuge,2401,Northfield Rd,2024-03-02,47,false
51103791,38.02917052695772,-78.46382110700459,private_room,Queen Room Near Downtown,413,Fairway Ave,2024-03-02,43,true
51120572,38.02759,-78.46372,private_room,Room with Full Bed - Walk to Downtown,,,2024-03-02,45,false
51147596,38.0677,-78.46714,private_room,115 Cozy bedroom in a renovated city home.,,,2024-03-02,8,false
51189642,38.04222,-78.49915,entire_home,The Venable - A Gorgeous Home in the Heart of UVA,626,Preston Pl,2024-03-02,61,true
51225982,38.05134042020064,-78.48270926671378,entire_home,The House on Rose Hill - Downtown C-Ville Living,1620,Rose Hill Dr,2024-02-13,,false
51417755,38.03450042900616,-78.47527819905345,entire_home,"Downtown 3 BR, just two blocks to mall w/ Hot tub",534,Park St,2024-03-02,74,true
51469389,38.03998,-78.46189,entire_home,LuxuryOnLocust. 1 mile to downtown.,,,2024-03-02,135,false
51531285,38.017353177186116,-78.51317569788823,entire_home,The Gardener’s Cottage,105,Monte Vista Ave,2024-03-02,88,true
51564626,38.02118045184461,-78.51910434852742,entire_home,"Cheerful 4-bedroom Home, Walking Distance from UVA",209,Huntley Ave,2024-03-02,22,false
51573516,38.024983983392346,-78.47506549549529,entire_home,The Douglas Home | Steps to attractions | Parking,227,Douglas Ave,2024-02-26,,false
51574902,38.03551971488887,-78.47486971433878,entire_home,Private Apt in Historic C'ville Home (Lane Side),620,Park St,2024-03-02,57,true
51584866,38.02660972299238,-78.47527795847486,entire_home,"Belmont Farmhouse | Huge, New, Walk to Everything!",127,Goodman St,2024-03-02,44,false
51693148,38.03493,-78.46544,entire_home,Low Key Cozy,,,2024-03-02,16,false
51826264,38.04457570876556,-78.48417080785855,entire_home,50's Cape Cod close to UVA/Downtown/ Barracks rd,1161,Rose Hill Dr,2024-03-02,67,false
51888181,38.02472,-78.46054,entire_home,Charming one room cottage with parking.,,,2024-03-02,42,false
51937784,38.040359246573416,-78.49410407979367,entire_home,Backyard relaxation in the center of Cville,703,12th St NW,,,false
52383173,38.06579,-78.47766,entire_home,"Vaulted Ceilings, Private Balcony, Near Everything",,,2024-03-02,84,false
52408208,38.031906977181535,-78.46355793622674,entire_home,The High Note | Craftsman Cottage | Fiber Internet,536,Meade Ave,2024-03-02,265,false
52457378,38.018240700845716,-78.51311739432074,entire_home,Cozy Home within walking distance to Scott Stadium,2601,Jefferson Ave,2024-03-02,23,false
52666860,38.02406071307347,-78.47573497291883,entire_home,French Cottage Apt | 30+ nights in Dtwn Belmont,829,Belmont Ave,2024-03-02,4,false
52667045,38.02365,-78.4768,entire_home,Elegant Apt | Lux Extended Stay in Belmont!,,,2024-03-02,7,false
52674667,38.032475,-78.454956,entire_home,"Spacious 2 BR 2 BA Modern Condo, Easy Location",,,,,false
52683091,38.017342017085,-78.50910648627729,entire_home,Willard Cottage 3 BR w/ huge yard min from UVA,,,2024-02-26,21,false
53169512,38.02346607681573,-78.47747116828785,entire_home,Yellow House| 2 BR Cottage Dtwn Cville/Belmont,802,Monticello Ave,2024-03-02,45,false
53202512,38.026135801075995,-78.47901115947613,entire_home,Hinton House - A Perfectly Located Downtown Home,612,Hinton Ave,,,true
53212810,38.03850280258797,-78.45848097846596,entire_home,Lovely 2 bedroom townhouse with parking,1014,Coleman St,2024-03-02,19,true
53215192,38.033294677734375,-78.46216583251953,entire_home,Restful Studio Close To Downtown & UVA Hospital,,,2024-03-02,3,false
53220686,38.06604759902862,-78.50378721531233,entire_home,Centrally located for all thing Charlottesville!,204,Georgetown Rd,,,false
53230241,38.033294677734375,-78.46216583251953,entire_home,Peaceful Oasis Close To Downtown and UVA Hospital,,,2024-03-02,6,false
53442549,38.02022531055858,-78.4819047828037,entire_home,"Altavista House - Renovated, Charming, & Walkable",700,Altavista Ave,2024-03-02,30,false
53456078,38.04397129831941,-78.48816406539248,entire_home,"Quiet & family friendly, 1 mile to UVA & downtown",1611,Hardwood Ave,2024-03-02,29,true
5352948,38.020908187875456,-78.47308174937115,entire_home,"Belmont Views - Beautiful, Spacious Apartment",1215,Monticello Rd,2024-03-02,302,false
53544297,38.042150762809705,-78.49077979520283,entire_home,"Preston Lofts-Spacious, Modern, Central, Green",1110,Preston Ave,2024-03-02,32,true
53600725,38.02418105833419,-78.49543616541999,private_room,Room A in a Townhouse Close to UVA Hospital,710,Orangedale Ave,2024-02-23,,true
53611903,38.02418105833419,-78.49543616541999,private_room,Room B in a Townhouse Close to UVA Hospital,710,Orangedale Ave,2024-03-02,93,true
53618884,38.02418105833419,-78.49543616541999,private_room,Room C in a Townhouse Close to UVA Hospital,710,Orangedale Ave,2024-03-02,79,true
53631964,38.02418105833419,-78.49543616541999,private_room,Room D in a Townhouse Close to UVA Hospital,710,Orangedale Ave,,,true
53736269,38.07595,-78.49099,entire_home,Cozy Apartment for all things Charlottesville,,,2024-03-02,,false
53780086,38.05591011610785,-78.48239140477632,entire_home,Charming spacious cottage centrally located,1610,Meadowbrook Heights Rd,2024-03-02,42,true
53808028,38.06893910586517,-78.4699822908606,entire_home,Wakefield Ct | Private Parking spots | Fast WiFi,101,Wakefield Rd,2024-03-02,83,false
53981835,38.03965,-78.51371,entire_home,"Cavalier Cottage-3 BR/Bath, Calm Amid UVA Grounds",,,2024-03-02,88,false
54131672,38.03604723438603,-78.50022384720188,entire_home,"Best Location for UVA, Renovated Historic 2BDRM",11,Elliewood Ave,2024-03-02,42,false
54277137,38.041738291120865,-78.45994667289352,entire_home,Downtown Cville Apartment with Private parking.,1036,Martin St,2024-03-02,68,true
54305101,38.02944286983294,-78.49698118211026,entire_home,"Bright & cozy home- 3 blocks from UVA, walk to DT!",1001,King St,2024-03-02,50,true
546192240445152764,38.02311668395411,-78.47692322226635,entire_home,Art lovers dream! Spacious private 2 BR apartment.,808,Monticello Ave,2024-03-02,45,false
546974217242473380,38.0442202043225,-78.49826683433042,entire_home,Lovely home for Graduation-Walk to the Rotunda!,1808,Rugby Pl,2024-03-02,3,true
549886189115774619,38.01522853329825,-78.50955513019403,entire_home,THE INTERNATIONAL HOUSE,110,Harris Road,2024-03-02,50,false
553559268479850123,38.0372579731364,-78.45926181386332,entire_home,Belleview Retreat | 5 Bedroom Home Near Downtown,1304,Belleview Ave,2024-03-02,96,false
556528789347402759,38.03305542924007,-78.4701843087263,entire_home,UVA Graduation - Home in DT Neighborhood,528,Locust Ave,2024-03-02,,false
557303932443496627,38.03182,-78.48143,entire_home,Penthouse Apartment Overlooking Downtown Mall,,,2024-03-02,32,false
561466400056996244,38.015743242031284,-78.50731344452615,entire_home,Kersey's Cottage at 204 an Airbnb + so much more!,204,Harris Road,2024-03-02,43,false
563901738867163497,38.02865,-78.47238,entire_home,Downtown Apartment with off-street parking,,,2024-03-02,125,false
567553823138749792,38.02217,-78.51799,entire_home,Studio Basement Apartment! 30 night minimum.,,,,,false
572545538342975862,38.06356,-78.47608,entire_home,Peaceful family home 5 min from downtown and UVA,,,2024-03-02,,false
573042791480238063,38.04155,-78.46388,private_room,"Cheerful, bright Charlottesville studio & bath",,,2024-02-22,,false
577615788995501215,38.0302353228263,-78.49358458161407,entire_home,NEW Tucked Away in Central C-ville.,805,Nalle St,2024-03-02,47,true
578775027596109350,38.021561466396946,-78.49238548756678,entire_home,No Chores Close Walk to UVA / Downtown Mall,821,Ridge St,2024-03-02,25,false
581756909129361577,38.02400577746773,-78.47578325310984,entire_home,Garden Apt | Lux Extended Stay in Downtown Belmont,829,Belmont Ave,2024-02-23,,false
581762401247689835,38.0240417193731,-78.47567057674836,entire_home,Ode 2 Cville| Lux Apartment in Downtown Belmont,829,Belmont Ave,2024-03-02,,false
581767571328964811,38.02401904724043,-78.47568778990625,entire_home,Blacksmith Apt | Lux Extended Stay in Belmont,829,Belmont Ave,,,false
581930515897663005,38.0593665918227,-78.47250995636986,entire_home,"Spacious Modern Retreat, minutes from Downtown",1500,Jamestown Dr,2024-03-02,19,false
582001573097772203,38.02371126335665,-78.50026010517048,entire_home,Single family brick ranch house near UVA,1428,Briarcliff Ave,2024-03-02,,false
586876075236988403,38.03455187985652,-78.47956481409543,entire_home,"Historic Top Floor Suite, 2 Bedrooms Dble Bathroom",504,1st St N,2024-03-02,20,true
586897838090870936,38.02492,-78.47436,entire_home,Casa Verde- Cozy suite in the heart of Belmont!,,,2024-03-02,36,false
591008075939052646,38.014801,-78.473129,entire_home,The Micah - 2 bedroom apt with private back deck.,,,,,false
591438154736560238,38.029353996579616,-78.487570148388,entire_home,"Modern cottage - walk downtown, UVA hosp & campus!",223,4th St NW,2024-03-02,48,false
5954234,38.029954462977635,-78.4925093465842,entire_home,New Custom Home in Downtown C'Ville,723,Nalle St,2024-03-02,245,false
600056193685666644,38.01475363626049,-78.47316234934469,entire_home,Eden  - perfect stay in lower Belmont!,1301,Knoll St,2024-03-02,36,false
6024395,38.025892609950205,-78.47649749449413,entire_home,Charming Belmont / Downtown cottage,330,Monticello Rd,2024-03-02,166,false
608097103135429985,38.03482011903709,-78.4727652562467,entire_home,"Modern Downtown Apt, walk to Mall, near UVA",609,Kelly Ave,2024-03-02,40,false
608706356328558802,38.023469714825886,-78.47462428661704,entire_home,Grove Apt | 30+ nights in Dwtn Belmont,915,Belmont Ave,,,false
609245145095265349,38.02349911027965,-78.47461944004654,entire_home,Service Station Apt - Extended Stay-Dtwn Belmont,915,Belmont Ave,2024-03-02,4,false
6106699,38.034620478014496,-78.47128429342801,entire_home,1BD Minutes from Downtown and UVA,620,Lexington Ave,2024-03-02,314,true
610898269496115329,38.02533238452422,-78.47566459358487,entire_home,"6 min Walk to Downtown Mall, Rustic Bohemian Digs!",150,Goodman St,2024-03-02,67,false
619010542886904596,38.01643,-78.48325,entire_home,"Bright, Modern Home Near Downtown C-Ville & UVa",,,2024-03-02,29,false
622381490723059929,38.03366594834737,-78.48259935713513,private_room,1-bedroom en suite bath in villa - great location!,400,High St,2024-02-14,,false
622437514617860093,38.03366594834737,-78.48259935713513,private_room,Enjoy one bedroom/bath with private entrance,400,High St,2024-03-02,12,false
625204383547327920,38.02142698610542,-78.49613831917497,entire_home,"5 min to Downtown C'ville, 3b/2b Comfortable!",619,Bailey Rd,2024-03-02,10,false
628218190832303955,38.01614,-78.4849,entire_home,Modern Studio with off-street parking in Belmont,,,2024-03-02,,false
633805699139193981,38.03081,-78.48197,entire_home,The Gryphon - 2 BR 2 BA on Downtown Mall,,,2024-03-02,18,false
640696305350613036,38.022790850707224,-78.48262106325899,entire_home,"The Matias - two bed, one bath, walk to downtown",921,6th St SE,,,false
644094739593601642,38.020460568632856,-78.48856667977167,entire_home,"New Luxury Modern Farmhouse, Downtown C'Ville",207,Hartmans Mill Rd,2024-03-02,34,false
644959552686374379,38.03303,-78.48301,private_room,Spacious bedroom with private entrance,,,,,false
6467552,38.04277,-78.48633,entire_home,Studio Apartment near Downtown/UVA,,,2024-03-02,240,false
649836088021674698,38.02655912774965,-78.47588826671169,entire_home,"Belmont Cottage | Downtown, Cozy, & Peaceful!",214,Little Graves St,2024-03-02,4,false
650763238584083723,38.02454,-78.48752,entire_home,Casa Abogada! Swanky & a view!,,,2024-03-02,9,false
652807042219837469,38.03366594834737,-78.48259935713513,private_room,Private one bedroom queen bed en suite bathroom,400,High St,2024-03-02,25,false
654961132802995841,38.03333,-78.46679,entire_home,Charlottesville Beauty Close to Everything!,,,2024-03-02,44,false
658691330513719800,38.04366,-78.46864,entire_home,Rustic Casita -at the heart of CVILLE <3,,,2024-03-02,135,false
659334933051050364,38.02821,-78.48038,entire_home,Vitalina downtown studio,,,2024-03-02,74,false
666011166858095094,38.02801,-78.50237,entire_home,Cozy 2 bedroom 2 bath home near UVA grounds,,,2024-02-25,41,false
666064890783209120,38.0346498395886,-78.49231367872589,entire_home,Page Place: Midterm 31+ Day Stays,905,Page St,2024-03-02,36,false
6674438,38.04070551939433,-78.46239862697493,entire_home,Luxury cottage in Downtown C-Ville,1012,Locust Ave,2024-03-02,452,true
668697086602272537,38.0445625,-78.5013649,entire_home,5 Bedroom Charmer - Walk to UVA!,,,2024-03-02,,false
670157789978942821,38.02173,-78.51174,entire_home,Calma Azul ~ A Retreat in the Heart of C-Ville,,,2024-03-02,30,false
670371238292145599,38.06670740772929,-78.49898614166248,entire_home,"King Bed, Grill, Fire-pit, 10 downtown, 5 UVA",2441,N Berkshire Rd,2024-03-02,41,false
6716761,38.05734,-78.47099,private_room,"Sunny, Charming room w/ private bathroom",,,2024-03-02,95,false
673302,38.02973307958931,-78.490134257316,entire_home,Adorable Butternut Cottage!,312,7th St SW,2024-03-02,258,true
674753625415781457,38.05720275390403,-78.49153301487337,entire_home,"4 Mins to UVA Grounds, Peaceful 3BR House",,,2024-03-02,8,false
676708145581866943,38.02973,-78.48568,entire_home,"Studio with 1 King, Sofa Bed at Residence Inn Charlottesville Downtown",,,2024-03-02,14,false
676708672871317949,38.03046,-78.48602,entire_home,"One Bedroom with 1 King, Sofa Bed at Residence Inn Charlottesville Downtown",,,2024-03-02,,false
686964335504690193,38.014563,-78.5124615,entire_home,"Cozy Basement Apt, Walk to UVA",,,2024-03-02,11,false
689298324126544219,38.01898,-78.51108,entire_home,Cheerful 2-Bedrooms home in UVA Neighborhood.,,,2024-03-02,,false
690268317492051143,38.01517,-78.51574,entire_home,Newly renovated one bedroom!,,,2024-03-02,12,false
692489808687800723,38.02279256735546,-78.48264898128667,entire_home,"The Ari - Belmont 2 bed, 1 bath, walk to downtown",921,6th St SE,2024-02-26,23,false
694842585387729677,38.02734787575216,-78.51906792477077,entire_home,The Nook at UVA -super quiet & right on Grounds!,119,Piedmont Ave N,2024-03-02,27,false
6967254,38.04368,-78.45591,entire_home,Suite w/Pvt. Entrance+Screen Porch.,,,2024-03-02,988,false
698321819774407074,38.05628188126209,-78.47564056572786,entire_home,Greenbrier Getaway,,,2024-03-02,23,false
699993648283250117,38.02437,-78.46049,entire_home,Tranquil Woolen Mills Garden Apartment,,,2024-03-02,,false
705073961831078679,38.02515647249777,-78.50777967638723,entire_home,Cozy home amazing location walk to UVA/Stadium,243,Shamrock Rd,2024-03-02,22,true
706550091633937542,38.03808,-78.47688,entire_home,North Downtown Maple - 3 Bed/2 Bath Dtwn Cville,,,2024-03-02,17,false
7086685,38.02801162319691,-78.46774530906002,entire_home,Cheerful Cottage,1214,E Jefferson St,2024-03-02,391,true
709953746628078357,38.023993985513535,-78.46118765147412,entire_home,Adorable Woolen Mills 3 bedroom house,1609,E Market St,2024-03-02,5,false
710888861667894189,38.02499007141666,-78.51197794039706,entire_home,Hill Street House walk to UVA Stadium/Fry's Spring,2217,Hill St,2024-03-02,35,false
711047572570151447,38.025249388347724,-78.46401075861787,entire_home,Boutique 2-bed w/ off-street parking,1341,E Market St,2024-03-02,18,false
712472644543219999,38.0206,-78.46904,entire_home,Cool 4-bedroom townhome walkable to restaurants,,,2024-03-02,60,false
713916694001144609,38.0159823366665,-78.48348560663297,entire_home,Belmont Beauty: 1 mile to DT Mall & 2 miles to UVA,118,Blincoe Ln,2024-03-02,25,false
719541359310087011,38.03036,-78.49948,entire_home,Stunning Modern Home~ 2min drive to UVA Campus,,,2024-03-02,43,false
720145076385732784,38.02355925378388,-78.50030883395655,entire_home,"Family-friendly home; walk to UVA, park for free.",1430,Briarcliffe Ave,2024-03-02,,false
722022779743655554,38.03751786719442,-78.46548791875671,entire_home,Long Street Cottage | 5 bdrm/3.5 bath,1006,Long St,2024-03-02,9,true
723981062304581833,38.04974,-78.50056,entire_home,Rugby Road Retreat - walking distance to UVA.,,,2024-03-02,,false
723987600978858467,38.02777395331055,-78.51865742149494,entire_home,Spacious 5 bedroom home near stadium + central UVA,124,Piedmont Ave N,2024-03-02,24,false
724818828074752560,38.02059,-78.48213,entire_home,Cozy cottage-15min walk to historic downtown mall!,,,2024-03-02,39,false
727785046430542163,38.03005971591411,-78.49425313765921,entire_home,Spacious and Modern Home | 4BR Near Downtown/UVA,856,Nalle St,2024-03-02,26,true
728064804483511459,38.01783641186227,-78.50724734271877,entire_home,"Newly-renovated 5BR home near UVA, Downtown, i64",421,Mosely Dr,2024-03-02,38,false
737512388321188321,38.02368,-78.46002,entire_home,Monticello Vista - A Woolen Mills Retreat,,,2024-03-02,,false
743492840198362058,38.05158616499965,-78.46081202473982,entire_home,Charlottesville Haven: Stylish Home Near Downtown!,1125,Pen Park Ln,2024-03-02,6,false
744356285915736743,38.04495,-78.48212,entire_home,Cheerful 3 bedroom home with indoor fireplace,,,2024-03-02,37,false
748452164488640110,38.02617192277097,-78.47556930510508,entire_home,Artistic Belmont home—walk downtown,135,Goodman St,,,false
762275,38.029654424795346,-78.46425163986476,entire_home,Treehouse on Stilts,437,Fairway Ave,2024-02-26,343,false
762997745246514379,38.04347434642468,-78.48715712307803,entire_home,Organic retreat 5 minutes from downtown Cville,,,2024-02-13,,false
770202579534357164,38.02184389607383,-78.48489899725988,entire_home,Little Blue Sunshine,400,Robinson Pl,2024-03-02,29,true
771110401747881475,38.066721661631654,-78.49903308029896,entire_home,"Grill, Fire-pit, 10 downtown",2441,N Berkshire Rd,2024-03-02,5,false
771842063098583505,38.03468791263644,-78.4608788539673,entire_home,Studio 1 W/Mountain Views,,,2024-03-02,,false
774005,38.02805674639535,-78.49240949727061,entire_home,Central & Private Home Away From Home,410,7 1/2 St SW,2024-03-02,277,true
7772434,38.0446,-78.45495,entire_home,The River's Edge Close to Downtown,,,2024-03-02,149,false
781114197388471090,38.04016842941604,-78.48931998142601,entire_home,"Sol, Washington Park, 2 bed, 1 bath entire home",938,Henry Ave,,,false
781118399912095772,38.06518,-78.478,entire_home,Pleasantdale Ridge,,,,,false
781454230530595940,38.0419056,-78.4633611,entire_home,Cozy Private Floor Near Downtown,,,2024-03-02,87,false
7815840,38.06128,-78.47558,entire_home,"Cozy 1BD FULL PRIVATE APT in Charlottesville, VA",,,2024-03-02,630,false
782808535312157732,38.02101647687694,-78.47911384421178,entire_home,Montrose Manor- In the heart of Belmont!,804,Montrose Ave,2024-03-02,48,true
7912866,38.03249,-78.48069,entire_home,Old Met #202 | 1 BR historic apartment,,,2024-03-02,68,false
792709936269617132,38.03339,-78.46067,entire_home,Studio 6 Close to UVA Hospital,,,2024-03-02,,false
792714636426935711,38.0336,-78.45999,entire_home,Studio 7 W/Mountain Views,,,2024-03-02,,false
792753155992630631,38.0344666,-78.4610119,entire_home,Studio 3 Close To Downtown Mall,,,2024-03-02,,false
792758528595546709,38.03468,-78.46185,entire_home,Studio 2 Close To Downtown Mall,,,2024-03-02,,false
792760241205353826,38.03534,-78.46179,entire_home,Studio 8 Close to UVA Hospital,,,2024-03-02,,false
792786761514336412,38.0344666,-78.4610119,entire_home,Studio 9 / Close to UVA Hospital,,,2024-03-02,,false
792795870971404504,38.03469,-78.46193,entire_home,Studio 5 W/ Bonus Room,,,2024-03-02,4,false
792824253182206382,38.0344666,-78.4610119,entire_home,Studio 10 Close To UVA Hospital,,,2024-03-02,4,false
792827391802854449,38.0344666,-78.4610119,entire_home,Studio 4 Dog Friendly Near UVA Hospital,,,2024-03-02,,false
793373388907875964,38.0344666,-78.4610119,entire_home,Studio 13 W/Patio Near Downtown,,,2024-03-02,3,false
793409588586059713,38.0344666,-78.4610119,entire_home,Studio 12 Dog Friendly W/Bonus Room,,,2024-03-02,3,false
793415399240764485,38.0344666,-78.4610119,entire_home,Studio 11 W/Mountain Views Close To UVA Hospital,,,2024-03-02,,false
795627130062220555,38.02119,-78.47822,entire_home,Belmont Apt with Hot Tub!,,,2024-03-02,22,false
796546431171870661,38.03,-78.48128,entire_home,The Poseidon - Studio apt near Downtown Mall,,,2024-03-02,8,false
797264168259246375,38.02777740213496,-78.51242375081515,entire_home,Stadium Hill House,109,Harmon St,2024-03-02,23,false
799553556974698884,38.05958788435446,-78.48530650920527,entire_home,Charlottesville Convenience & Comfort-Large Group,1613,Brandywine Dr,2024-02-14,,false
799624483447198048,38.020997,-78.4974658,private_room,House share w/ private bath in quiet comfort home.,,,2024-03-02,34,false
801555579866774054,38.03354605007401,-78.46363120104664,entire_home,*NEW* Newly Renovated Home by Downtown,1411,Hazel St,2024-02-14,,true
803561217742243817,38.02143761749096,-78.47204002236656,entire_home,Mountain View Rambler | Near DT | King+Queen beds,1119,Leonard St,2024-03-02,84,true
811797003090919736,38.01869802916836,-78.51046520707632,entire_home,Charlottesville (Fry’s Spring) UVA Retreat,2313,Willard Dr,2024-03-02,34,false
815312850918778272,38.017839804666345,-78.49211991429314,entire_home,"Trendy, Mountain Views, Close to Downtown",916,Woodfolk Dr,2024-03-02,14,false
822055570429675511,38.03359238936481,-78.46158359356718,entire_home,Cozy furnished 1 BR in C-Ville! No cleaning fee!,1517,E High St,2024-03-02,167,false
826175223879393145,38.01404088419447,-78.50913940513746,entire_home,Homey Entire House close to UVa and downtown mall!,613,Moseley Dr,2024-03-02,3,true
827619841666046068,38.05040120567775,-78.48480416167119,entire_home,"GreenLeaf | 3 bed, 2 Bath in Rugby Hills",1608,Greenleaf Ln,2024-03-02,10,true
829073878764418899,38.05189418611989,-78.46021293191932,entire_home,Midterm Pen Park in Central Charlottesville,1140,Pen Park Ln,2024-02-23,,false
831729465320691525,38.0633197,-78.5087332,private_room,1 bdrm in Charlottesville near JPJ arena,,,2024-03-02,19,false
835614277774723048,38.06722,-78.47056,entire_home,115 Central Charlottesville Home,,,2024-03-02,,false
839008601769416952,38.0209206,-78.48467339999999,entire_home,Bohemian Belmont Home,,,2024-03-02,5,false
8497015,38.0258,-78.51419,entire_home,"Sunny private studio, walk to the University",,,2024-03-02,308,false
851437198893371900,38.0310314,-78.4875237,private_room,Loft Suite,,,2024-03-02,,false
851475732915603337,38.0310314,-78.4875237,private_room,Quirk Suite,,,2024-03-02,,false
853137790939335214,38.030142568725104,-78.49037660751158,entire_home,Walking distance to UVA and downtown! A,301,7th St SW,,,false
854242278917596119,38.026830297848704,-78.51410169898917,entire_home,La Maisonette | UVA | JPJ,105,Observatory Ave,2024-03-02,73,true
854533079820366197,38.030130754402926,-78.49037934229928,entire_home,"Walk to UVA, downtown, hospital!",301,7th St SW,2024-03-02,4,false
860338588758285345,38.02291,-78.4746,entire_home,Downtown Belmont Classic,836,Belmont Ave,2024-03-02,9,true
861663513382529300,38.02205333718456,-78.47481696867393,entire_home,Monticello Getaway | Walk to Downtown Cville!,932,Monticello Ave,2024-03-02,17,true
863134032175602036,38.04216167982598,-78.49078993246597,entire_home,Perfect C-Ville headquarters,1110,Preston Ave,2024-03-02,,true
864386861000493138,38.03955110773162,-78.51340621176746,entire_home,*NEW* Lewis Mtn Retreat: Walk to UVA & JPJ,2026,Minor Rd,2024-03-02,14,false
864639619210940663,38.05221,-78.50232,private_room,Convenience Meets Style! Free Breakfast Here!,,,2024-03-02,,false
865123089714593670,38.029831,-78.482941,private_room,Rose Jean - Room #1,,,2024-03-02,16,false
865132294089802666,38.03063,-78.48348,private_room,Rose Jean - Room #2,,,2024-03-02,4,false
865135112098342657,38.02887,-78.4826,private_room,Rose Jean - Room #3,,,2024-03-02,21,false
865137048845444496,38.0301,-78.48264,private_room,Rose Jean - Room #4,,,2024-03-02,30,false
865143567237311471,38.03088,-78.48378,private_room,Rose Jean - Room #5,,,2024-03-02,25,false
866006667606336654,38.01495511997212,-78.49783697422131,entire_home,Cozy Rancher close to UVA & Downtown C’ville,101,Leigh Pl,2024-03-02,46,true
867304147989618787,38.02208,-78.4716,private_room,"1920 Original Belmont House, Walk Downtown",,,2024-03-02,29,false
872899935574341178,38.01913008717556,-78.49672862765884,private_room,Rooms for one near downtown/UVA,960,Rockcreek Rd,,,false
876083593852874191,38.03889611047886,-78.51152577103575,entire_home,Cameron Cottage | Best UVA Neighborhood,207,Cameron Ln,2024-03-02,10,false
876833501459844273,38.03484295318061,-78.4881981777555,entire_home,Robin's Nest on West,708,West St,2024-03-02,7,false
8773668,38.04451263384458,-78.49275259274002,entire_home,UVA Graduation or Wedding rental,1208,Preston Ave,2024-03-02,4,false
877419552007527811,38.016179248901416,-78.5105246704342,entire_home,The Blue House,102,Oak Lawn Dr,2024-02-26,6,true
877711890075727509,38.01941919482401,-78.48372924920166,entire_home,Cozy Perfection Near Everything,1309,Early St,2024-02-13,,false
881108831451265287,38.04193804515896,-78.46335227995192,entire_home,Cape Cod Home on Saint Chuck,1014,St Charles Ave,2024-03-02,,false
882162189525821583,38.03724,-78.46661,entire_home,Brand New Studio Apt in C'ville,,,2024-03-02,,false
883990803412594505,38.041744170443934,-78.45994886487287,entire_home,Downtown Cville Apartment,1036,Martin St,2024-03-02,,true
887024752649078732,38.0363416375699,-78.50016381115181,entire_home,Heart of the Action on 'The Corner' at UVa,17,Elliewood Ave,2024-03-02,6,false
887637685970978714,38.01961,-78.5156,entire_home,Luxury House 3 min from UVA,,,2024-03-02,49,false
889632523059493197,38.02282756047421,-78.48267172869103,entire_home,"Natalie- Belmont 2 bd/1 ba, walk downtown",921,6th St SE,2024-03-02,22,false
891222441943408811,38.03965,-78.49407,entire_home,Sunny studio,,,2024-03-02,,false
891305837504122073,38.028760071355066,-78.48096903791824,entire_home,“Heart of the city studio”,313,2nd St SW,2024-03-02,36,false
892003038938675488,38.01835571013165,-78.48339696374497,entire_home,"Belmont BnB ~ Comfort & Convenience ~ 
2 BR/1BA",701,Avon St,2024-03-02,51,false
892241177229606891,38.011673302981386,-78.49496550263333,entire_home,Mi Casa Es Su Casa Private Basement Suite,909,Royer Dr,2024-03-02,99,false
901395726384448810,38.03252,-78.49399,entire_home,Standard King room at Charlottesville,,,2024-03-02,,false
901396444634832450,38.03117,-78.4941,entire_home,Standard Two Queen Beds at Charlottesville,,,2024-02-26,,false
901728627943477191,38.02101839365477,-78.49750404711442,private_room,Dedicated bedroom/bath w/ Queen in house share.,811,Prospect Ave,2024-03-02,,true
907921492539010529,38.02989244977957,-78.4830349319268,entire_home,"Entire 5 Bed, 5 Bath Boutique Hotel | Dtwn Cville",209,2nd St SW,2024-03-02,,false
9129518,38.0232376042478,-78.46043360218428,entire_home,Woolen Mills Retreat | Close to Downtown with pool,1618,E Market St,2024-03-02,51,false
9129687,38.02969170843505,-78.47250398037842,entire_home,Pryor-Haynes House Downtown Historic Stately Home,1004,E Jefferson St,2024-03-02,59,false
9129723,38.02387547782922,-78.47106746552043,entire_home,The Belmont Flat | Located in the popular Belmont,1110,Myrtle St,2024-03-02,168,false
9129775,38.03113431351982,-78.48117013573349,entire_home,Old Met #306 |  1 BR apt overlooking Downtown Mall,101-111,E Main St,2024-03-02,117,false
9129878,38.04001904097115,-78.46339958129269,entire_home,Nest on Locust | Stylish Downtown Villa,960,Locust Ave,2024-03-02,5,false
913703971262176740,38.0209,-78.46659,entire_home,Newly renovated home in Belmont!,,,,,false
914355761226534025,38.05296,-78.50278,private_room,Excellent Location! 3 Units Near Lemon Grass Park,,,2024-03-02,,false
914360330148803533,38.05205,-78.50262,private_room,"Minutes from The Lawn! 2 Posh Units, Pet-Friendly",,,2024-03-02,,false
914365621336050875,38.05366,-78.50279,private_room,"Comfort and Convenience! Pet-Friendly, w/ Pool",,,2024-03-02,,false
914369886657707275,38.05222,-78.50355,private_room,"Wonderful Stay! Near Dell Tennis Courts, w/ Pool",,,2024-03-02,,false
914564,38.01828748526763,-78.48076537947084,entire_home,Cozy convenient home in Bellmont,805,Stonehenge Ave,2024-03-02,302,true
919097644400377859,38.03808340250419,-78.51473327246134,entire_home,Central UVA 4 bedroom Floor,2014,Lewis Mountain Rd,2024-03-02,,false
919860,38.03409695556614,-78.47739219381076,entire_home,The Recycled House - Walk Downtown,401,Hedge St,2024-03-02,124,true
922567804315179173,38.03796944648907,-78.4777988682072,entire_home,Comfortable North Downtown Bijou,709,Nelson Dr,2024-03-02,19,false
922611487433847958,38.01029188523999,-78.46258737591884,entire_home,"Sonsak - Main Floor, Unit 2",943,Jefferson Lake Dr,2024-03-02,28,false
922616004282322347,38.01029188523999,-78.46258737591884,entire_home,"Sonsak - Main Floor, Unit 4",943,Jefferson Lake Dr,2024-03-02,32,false
922617432858029484,38.01029188523999,-78.46258737591884,private_room,"Sonsak - Lower Level, Unit 5",943,Jefferson Lake Dr,2024-03-02,30,false
923196998140144004,38.01851240346165,-78.47364708831755,entire_home,Cozy Downtown Cottage!,1112,Montrose Ave,2024-03-02,22,true
923844180513985288,38.02588801965208,-78.46323668462804,entire_home,"Eclectic home—quiet, pet-friendly, great location",1434,Chesapeake St,2024-03-02,25,false
9274661,38.03031356226151,-78.5057163788603,entire_home,Adorable cottage steps from Grounds,513,Valley Rd,2024-03-02,366,false
929652062185734119,38.02400438743492,-78.47975361486651,entire_home,BelmontBNB*Modern*Luxury*near UVA/Wineries*walk2DT,707,Avon St,2024-03-02,27,true
931955681620452203,38.015870766274176,-78.51439710235258,entire_home,The best C'ville getaway! Close to everything!,,,2024-03-02,24,false
932628091275986268,38.03670871844824,-78.50929411777526,entire_home,Walking Distance to Rotunda - Luxury UVA Home,1916,Thomson Rd,2024-03-02,4,false
932805044743310858,38.03472851267741,-78.49244890909047,entire_home,"Cozy Annex: Walk to UVA-Hospital, Amtrak, & Bars!",,,2024-03-02,,false
932851036319587240,38.01972480422007,-78.48572824332182,entire_home,Apartment Near Downtown Mall/Belmont,507,Rockland Ave,2024-03-02,4,true
933612345574708731,38.01029188523999,-78.46258737591884,entire_home,"Sonsak - Main Floor, Unit 1",943,Jefferson Lake Dr,2024-03-02,15,false
933612346153433868,38.01029188523999,-78.46258737591884,private_room,"Sonsak - Main Floor, Unit 3",943,Jefferson Lake Dr,2024-03-02,8,false
934622717647432765,38.04194946998402,-78.46022953562144,entire_home,Dreams Really do Come True!,,,2024-03-02,,false
934793365783929973,38.02247427128297,-78.48762151044382,entire_home,Belmont Oasis I Great Dtwn Cville Location!,146,Burnet St,2024-03-02,6,false
934810427809244137,38.03631315097328,-78.49384259195321,entire_home,Downtown Charm: Cozy Cottage Near UVA & Breweries,,,2024-03-02,10,false
942663882051085619,38.02768929661954,-78.49096346143453,entire_home,Walkable Charlottesville Apt,,,2024-03-02,10,false
942861977598077361,38.03238973716215,-78.48406058011115,entire_home,Cozystay Signature Charlottesville - Double Deluxe,,,2024-03-02,,false
942861980791388202,38.031088259124026,-78.4846484372917,entire_home,Cozystay Signature Charlottesville - Suite Executi,,,2024-03-02,,false
942862085107854003,38.032316521184825,-78.48333359461768,entire_home,Cozystay Signature Charlottesville - Double Deluxe,,,2024-03-02,,false
942862130938657553,38.03201076705677,-78.48300403683595,entire_home,Cozystay Signature Charlottesville - Suite King Si,,,2024-03-02,,false
944294479654388469,38.030051,-78.48051699999999,entire_home,Bird Cage | 3 King Beds | Door to DT Mall,,,2024-03-02,27,false
946271102809832834,38.02532301449834,-78.47604355593553,entire_home,1BR Beautiful Belmont Apt Walk Everywhere!,402,Monticello Rd,2024-03-02,6,false
947658407699410842,38.03670871844824,-78.50929411777526,entire_home,Luxury UVA Cottage - Outdoor Fireplace & Pergola,1916,Thomson Rd,2024-03-02,7,false
947790046022562479,38.03670871844824,-78.50929411777526,entire_home,Luxury House at UVA - Outdoor Fireplace & Pergola,1916,Thomson Rd,2024-03-02,4,false
947875423700120586,38.06537686835601,-78.46624819803871,entire_home,Hoos Nest,2310,Tarleton Dr,2024-03-02,12,false
948963780822535962,38.01696063666211,-78.50850506656516,entire_home,Charming Retreat in Charlottesville w/ Deck!,2605,Willard Dr,2024-03-02,15,false
949314156000912748,38.02442267723136,-78.48036142023948,entire_home,Tropical Pool House Oasis in Downtown C-Ville,,,2024-02-23,,false
953582672381513508,38.04252145746727,-78.46145072696196,entire_home,Centrally located by UVA/Stadium,1035,Locust Ave,2024-03-02,,true
9541865,38.04286,-78.46197,entire_home,Guest House on Locust | near Downtown,,,2024-03-02,37,false
954191920340863687,38.02109068290827,-78.49567652967329,entire_home,Private oasis in the city,609,Bailey Rd,2024-03-02,10,false
954218870224259730,38.0292585919783,-78.47801591411921,entire_home,The Gatsby,,,2024-03-02,,false
955000809586205510,38.025640841822714,-78.46494906608339,entire_home,The Modern at Woolen Mills,1329,E Market St,2024-03-02,10,true
957183765477454574,38.03977065358725,-78.46176594800217,entire_home,Cozy Home Locust Grove,,,2024-03-02,16,false
958821302617547395,38.01460568018782,-78.51525795684356,entire_home,Charlottesville Oasis~5min Drive to UVA (Duplex A),236,Old Lynchburg Rd,2024-03-02,8,false
958907790056728763,38.01404885448101,-78.51719372304758,entire_home,Fry's Spring Apt! 5 mins to UVA,2727,McElroy Dr,2024-03-02,14,false
958923123393985968,38.0226765611356,-78.47678617345078,private_room,Bright Belmont Guest Suite,,,2024-03-02,7,false
958951586135313453,38.01353987966725,-78.51435840398204,entire_home,Newly Renovated Home~5min to UVA (Duplex B),236,Old Lynchburg Rd,2024-03-02,17,false
964598796048682838,38.018295151700165,-78.51310611341282,private_room,2603 Jefferson Park Avenue Airbnb,2603,Jefferson Park Ave,2024-03-02,4,false
965964089949081590,38.02466711668878,-78.51582279200035,entire_home,Basement with the Basics - 1/2 mile to UVA,,,2024-03-02,5,false
966509507544041856,38.046950254413,-78.48408701184624,entire_home,Cute Cape in Charlottesville,1506,Oxford Rd,2024-02-26,,false
969100575802234487,38.067589584003926,-78.50293305418897,private_room,Queen bedroom with Private bathroom,99,Biltmore Dr,2024-03-02,7,false
9704469,38.02579461770468,-78.48003612201124,entire_home,Adorable Downtown Cottage,604,Belmont Ave,2024-03-02,341,true
972551779719615360,38.0311970615077,-78.47832849515822,entire_home,The Townie 3 BD/2BA Historic Downtown Building,,,2024-03-02,25,false
973403332642230821,38.0243936000579,-78.47068957438508,entire_home,Basic Belmont Apt+ Air Hockey + Walkable Downtown,305,Chestnut St,2024-03-02,23,true
974557251830997610,38.02617012608325,-78.51754248322874,entire_home,Cavalier Cocoon: Studio + Walk to uva Grounds,2311,Fontaine Ave,2024-03-02,4,true
974606593178781123,38.042370982362414,-78.50302847180666,entire_home,Home on UVA Campus! On site parking!,35,University Cir,,,false
974794130202491589,38.02617012608325,-78.51754248322874,entire_home,"Fontaine Midterm: Fully Furnished, Walk to UVA",2311,Fontaine Ave,,,true
975690792140995765,38.05174581635193,-78.49649072003263,entire_home,Private apartment in great location near UVA,,,2024-03-02,3,false
977683525893143884,38.02127,-78.47172,entire_home,Fun sunny 2 bedroom  home in Belmont,,,2024-03-02,,false
978139550782214361,38.03815,-78.51077,entire_home,The Groundskeeper-Walk to UVA/JPJ/Scott/Klockner,,,2024-03-02,16,false
98084,38.03460334057823,-78.47956663478611,entire_home,Historic Apartment - North Downtown near Mall,504,1st St N,2024-03-02,348,true
983927166127022738,38.04803134994451,-78.46220897084585,entire_home,"3 Bed, 3 Bath Cute Home in Charlottesville",1220,Agnese St,2024-03-02,,false
983941603149368741,38.0300616,-78.4805093,entire_home,DreamBird | On the DT Mall | Up to 14 Guests,,,2024-03-02,,false
9844794,38.03031,-78.48795,entire_home,"Modern, Light-filled Home - Family Friendly",,,2024-03-02,11,false
985544985433728728,38.02702200584268,-78.49665345197435,entire_home,Charlottesville Oasis: Guests Love the Location!,,,2024-03-02,23,false
986088902067093517,38.03485841240403,-78.49985913564699,private_room,Double Queen Guestroom at Little Mod Hotel,,,2024-03-02,,false
986123235529847097,38.0364,-78.49853,private_room,King Room at Little Mod Hotel,,,2024-03-02,,false
987237184038367929,38.07433206386674,-78.4867718801486,entire_home,House in commonwealth,392,Minor Ridge Rd,2024-03-02,5,false
992067846251851012,38.02325039054416,-78.49054260068665,entire_home,Spacious Apt 1 In Historical Building,752,Ridge St,2024-03-02,,false
992078227781879484,38.02325039054416,-78.49054260068665,entire_home,Close To UVA Hospital Apt 4 In Historical Building,752,Ridge St,2024-03-02,,false
9985512,38.039732682238785,-78.46959551406984,entire_home,"Studio Guest ""Cottage""",624,Watson Ave,2024-03-02,155,true
